     3.03           OBSERVATION DATA    M (MIXED)           RINEX VERSION / TYPE
teqc  2019Feb25                         2024-01-01 00:00:00PGM / RUN BY / DATE
TEST                                    MARKER NAME
GNSS_USER                               OBSERVER / AGENCY
12345           TRIMBLE NETR9          5.15        REC # / TYPE / VERS
54321           TRM55971.00     NONE    ANT # / TYPE
  3149745.2340  1162046.8930  5432167.8900                  APPROX POSITION XYZ
        0.0000        0.0000        0.0000                  ANTENNA: DELTA H/E/N
     1     8                                                      WAVELENGTH FACT L1/2
     8    C1    L1    L2    P2    S1    S2    D1    D2        # / TYPES OF OBSERV
    30.0000                                                       INTERVAL
  2024     1     1     0     0     0.0000000     GPS         TIME OF FIRST OBS
  2024     1     1     1     0     0.0000000     GPS         TIME OF LAST OBS
     0                                                         RCV CLOCK OFFS APPL
     0    0     0                                      LEAP SECONDS
     0                                                            # OF SATELLITES
END OF HEADER
> 2024  1  1  0  0   0.0000000  0 14
  22411779.165 117770777.719  91776326.777  22411779.165          33.1          27.9           0.0           0.0
  22176080.092 116532212.306  90811138.415  22176080.092          33.5          28.8           0.0           0.0
  22311165.174 117242065.149  91364312.040  22311165.174          36.2          33.2           0.0           0.0
  22188222.092 116596016.817  90860859.947  22188222.092          29.6          30.4           0.0           0.0
  22053193.077 115886458.226  90307915.626  22053193.077          34.4          29.0           0.0           0.0
  22499059.097 118229421.971  92133738.719  22499059.097          32.5          32.3           0.0           0.0
  22004174.021 115628870.225  90107182.624  22004174.021          37.6          30.3           0.0           0.0
  22139558.946 116340299.526  90661584.771  22139558.946          35.7          32.8           0.0           0.0
  22073407.121 115992679.996  90390692.034  22073407.121          32.3          31.6           0.0           0.0
  22349535.033 117443694.174  91521437.349  22349535.033          33.7          26.4           0.0           0.0
  22306167.117 117215801.372  91343845.196  22306167.117          35.3          29.0           0.0           0.0
  22413913.215 117781991.602  91785065.527  22413913.215          36.7          29.2           0.0           0.0
  22445095.762 117945853.922  91912760.043  22445095.762          35.7          28.1           0.0           0.0
  22121017.002 116242863.896  90585655.205  22121017.002          33.5          31.1           0.0           0.0
> 2024  1  1  0  0  30.0000000  0 14
  22411778.976 117770777.786  91776326.803  22411778.976          30.9          27.8           0.0           0.0
  22176079.916 116532212.355  90811138.446  22176079.916          33.6          31.6           0.0           0.0
  22311165.063 117242065.214  91364312.064  22311165.063          38.8          27.2           0.0           0.0
  22188221.888 116596016.865  90860859.990  22188221.888          33.1          31.6           0.0           0.0
  22053193.016 115886458.265  90307915.693  22053193.016          38.7          29.0           0.0           0.0
  22499058.992 118229422.033  92133738.784  22499058.992          37.1          27.3           0.0           0.0
  22004174.024 115628870.257  90107182.673  22004174.024          34.1          27.8           0.0           0.0
  22139558.874 116340299.587  90661584.806  22139558.874          34.6          33.0           0.0           0.0
  22073406.884 115992680.031  90390692.099  22073406.884          37.0          27.2           0.0           0.0
  22349534.943 117443694.206  91521437.396  22349534.943          37.8          30.2           0.0           0.0
  22306167.090 117215801.424  91343845.243  22306167.090          35.0          35.1           0.0           0.0
  22413913.164 117781991.665  91785065.561  22413913.164          37.6          30.6           0.0           0.0
  22445095.964 117945853.969  91912760.078  22445095.964          33.6          28.1           0.0           0.0
  22121016.919 116242863.967  90585655.238  22121016.919          36.5          29.2           0.0           0.0
> 2024  1  1  0  1   0.0000000  0 14
  22411779.051 117770777.811  91776326.870  22411779.051          34.6          32.3           0.0           0.0
  22176080.012 116532212.401  90811138.503  22176080.012          36.5          33.8           0.0           0.0
  22311165.072 117242065.248  91364312.105  22311165.072          39.6          32.5           0.0           0.0
  22188221.901 116596016.910  90860860.025  22188221.901          38.8          30.4           0.0           0.0
  22053193.115 115886458.341  90307915.718  22053193.115          38.2          32.4           0.0           0.0
  22499058.904 118229422.054  92133738.823  22499058.904          37.4          31.2           0.0           0.0
  22004173.991 115628870.314  90107182.698  22004173.991          37.4          29.5           0.0           0.0
  22139558.977 116340299.617  90661584.857  22139558.977          35.6          30.9           0.0           0.0
  22073406.988 115992680.062  90390692.146  22073406.988          39.6          35.8           0.0           0.0
  22349535.026 117443694.261  91521437.429  22349535.026          37.5          32.4           0.0           0.0
  22306167.005 117215801.475  91343845.277  22306167.005          36.2          35.3           0.0           0.0
  22413912.918 117781991.693  91785065.604  22413912.918          35.9          31.2           0.0           0.0
  22445096.058 117945854.024  91912760.099  22445096.058          36.2          31.4           0.0           0.0
  22121016.949 116242864.003  90585655.261  22121016.949          36.7          30.9           0.0           0.0
> 2024  1  1  0  1  30.0000000  0 14
  22411778.795 117770777.884  91776326.909  22411778.795          36.0          31.7           0.0           0.0
  22176080.075 116532212.443  90811138.526  22176080.075          37.3          28.9           0.0           0.0
  22311164.971 117242065.312  91364312.165  22311164.971          36.1          32.9           0.0           0.0
  22188221.972 116596016.967  90860860.062  22188221.972          35.1          32.5           0.0           0.0
  22053193.080 115886458.379  90307915.753  22053193.080          35.8          30.0           0.0           0.0
  22499059.030 118229422.121  92133738.863  22499059.030          36.9          30.1           0.0           0.0
  22004174.005 115628870.367  90107182.772  22004174.005          38.3          31.3           0.0           0.0
  22139558.875 116340299.688  90661584.904  22139558.875          35.0          26.7           0.0           0.0
  22073407.200 115992680.144  90390692.152  22073407.200          36.7          31.4           0.0           0.0
  22349535.011 117443694.307  91521437.466  22349535.011          40.1          34.9           0.0           0.0
  22306167.088 117215801.514  91343845.331  22306167.088          40.6          31.9           0.0           0.0
  22413912.947 117781991.744  91785065.643  22413912.947          36.9          29.5           0.0           0.0
  22445096.065 117945854.068  91912760.175  22445096.065          35.3          29.2           0.0           0.0
  22121017.201 116242864.050  90585655.309  22121017.201          41.0          31.2           0.0           0.0
> 2024  1  1  0  2   0.0000000  0 14
  22411778.873 117770777.928  91776326.927  22411778.873          37.0          31.9           0.0           0.0
  22176079.944 116532212.504  90811138.566  22176079.944          35.1          34.0           0.0           0.0
  22311165.025 117242065.344  91364312.202  22311165.025          34.7          32.0           0.0           0.0
  22188221.979 116596017.040  90860860.117  22188221.979          36.9          30.8           0.0           0.0
  22053193.066 115886458.414  90307915.807  22053193.066          41.6          29.9           0.0           0.0
  22499059.040 118229422.170  92133738.916  22499059.040          38.5          32.4           0.0           0.0
  22004173.890 115628870.402  90107182.795  22004173.890          39.6          31.6           0.0           0.0
  22139558.953 116340299.722  90661584.946  22139558.953          39.2          31.7           0.0           0.0
  22073406.885 115992680.171  90390692.224  22073406.885          37.5          34.3           0.0           0.0
  22349534.828 117443694.357  91521437.520  22349534.828          38.6          32.6           0.0           0.0
  22306167.002 117215801.556  91343845.363  22306167.002          39.0          35.8           0.0           0.0
  22413913.083 117781991.769  91785065.684  22413913.083          36.1          36.2           0.0           0.0
  22445096.055 117945854.124  91912760.192  22445096.055          37.6          29.5           0.0           0.0
  22121016.997 116242864.106  90585655.335  22121016.997          42.6          32.2           0.0           0.0
> 2024  1  1  0  2  30.0000000  0 14
  22411779.193 117770777.964  91776326.990  22411779.193          37.9          34.0           0.0           0.0
  22176080.165 116532212.538  90811138.628  22176080.165          38.9          30.2           0.0           0.0
  22311165.006 117242065.414  91364312.246  22311165.006          37.1          33.8           0.0           0.0
  22188221.914 116596017.049  90860860.146  22188221.914          37.9          31.3           0.0           0.0
  22053193.073 115886458.469  90307915.832  22053193.073          35.6          29.9           0.0           0.0
  22499059.225 118229422.208  92133738.957  22499059.225          40.6          30.3           0.0           0.0
  22004174.151 115628870.464  90107182.835  22004174.151          36.2          31.5           0.0           0.0
  22139559.133 116340299.780  90661584.960  22139559.133          38.2          30.7           0.0           0.0
  22073407.157 115992680.228  90390692.264  22073407.157          39.6          33.9           0.0           0.0
  22349535.125 117443694.409  91521437.535  22349535.125          39.8          30.4           0.0           0.0
  22306167.045 117215801.612  91343845.437  22306167.045          39.9          33.5           0.0           0.0
  22413913.234 117781991.838  91785065.718  22413913.234          37.7          32.6           0.0           0.0
  22445096.096 117945854.166  91912760.239  22445096.096          37.8          29.7           0.0           0.0
  22121016.859 116242864.148  90585655.398  22121016.859          40.2          29.3           0.0           0.0
> 2024  1  1  0  3   0.0000000  0 14
  22411779.067 117770778.013  91776327.008  22411779.067          38.6          35.3           0.0           0.0
  22176080.041 116532212.587  90811138.659  22176080.041          41.9          33.1           0.0           0.0
  22311165.015 117242065.477  91364312.289  22311165.015          38.5          33.5           0.0           0.0
  22188222.085 116596017.119  90860860.176  22188222.085          42.1          36.0           0.0           0.0
  22053192.917 115886458.517  90307915.895  22053192.917          36.4          35.6           0.0           0.0
  22499059.069 118229422.259  92133738.974  22499059.069          39.0          33.2           0.0           0.0
  22004174.022 115628870.499  90107182.872  22004174.022          37.1          34.3           0.0           0.0
  22139558.994 116340299.823  90661585.011  22139558.994          38.5          35.2           0.0           0.0
  22073407.084 115992680.264  90390692.300  22073407.084          37.0          34.7           0.0           0.0
  22349535.171 117443694.462  91521437.598  22349535.171          37.3          37.8           0.0           0.0
  22306167.125 117215801.651  91343845.438  22306167.125          44.4          33.2           0.0           0.0
  22413913.165 117781991.909  91785065.746  22413913.165          38.0          35.3           0.0           0.0
  22445096.021 117945854.209  91912760.270  22445096.021          37.0          33.8           0.0           0.0
  22121016.983 116242864.210  90585655.438  22121016.983          38.3          33.9           0.0           0.0
> 2024  1  1  0  3  30.0000000  0 14
  22411778.992 117770778.061  91776327.052  22411778.992          35.8          33.1           0.0           0.0
  22176080.147 116532212.664  90811138.698  22176080.147          38.0          32.2           0.0           0.0
  22311164.812 117242065.504  91364312.312  22311164.812          37.4          33.7           0.0           0.0
  22188221.906 116596017.174  90860860.244  22188221.906          41.2          31.8           0.0           0.0
  22053193.169 115886458.594  90307915.935  22053193.169          40.8          31.1           0.0           0.0
  22499059.093 118229422.279  92133739.016  22499059.093          39.8          29.1           0.0           0.0
  22004174.051 115628870.535  90107182.917  22004174.051          39.5          35.8           0.0           0.0
  22139558.952 116340299.873  90661585.054  22139558.952          38.3          35.0           0.0           0.0
  22073406.972 115992680.306  90390692.340  22073406.972          41.7          38.6           0.0           0.0
  22349535.104 117443694.525  91521437.634  22349535.104          41.6          35.1           0.0           0.0
  22306166.991 117215801.720  91343845.487  22306166.991          41.6          35.8           0.0           0.0
  22413912.919 117781991.920  91785065.807  22413912.919          42.9          36.4           0.0           0.0
  22445095.883 117945854.257  91912760.310  22445095.883          41.4          35.2           0.0           0.0
  22121017.107 116242864.229  90585655.494  22121017.107          43.5          36.2           0.0           0.0
> 2024  1  1  0  4   0.0000000  0 14
  22411778.927 117770778.126  91776327.100  22411778.927          39.8          32.6           0.0           0.0
  22176080.014 116532212.716  90811138.720  22176080.014          40.7          33.6           0.0           0.0
  22311165.165 117242065.554  91364312.359  22311165.165          43.9          34.3           0.0           0.0
  22188222.102 116596017.229  90860860.262  22188222.102          41.4          35.3           0.0           0.0
  22053192.971 115886458.618  90307915.968  22053192.971          41.5          37.6           0.0           0.0
  22499059.130 118229422.367  92133739.058  22499059.130          40.7          35.0           0.0           0.0
  22004174.169 115628870.600  90107182.972  22004174.169          36.6          34.1           0.0           0.0
  22139559.183 116340299.932  90661585.093  22139559.183          43.4          31.7           0.0           0.0
  22073407.055 115992680.393  90390692.368  22073407.055          40.6          32.2           0.0           0.0
  22349534.928 117443694.562  91521437.667  22349534.928          39.5          39.8           0.0           0.0
  22306167.113 117215801.776  91343845.525  22306167.113          39.8          33.4           0.0           0.0
  22413913.263 117781991.988  91785065.841  22413913.263          39.8          35.0           0.0           0.0
  22445096.238 117945854.318  91912760.352  22445096.238          38.2          35.3           0.0           0.0
  22121017.121 116242864.298  90585655.531  22121017.121          40.2          36.6           0.0           0.0
> 2024  1  1  0  4  30.0000000  0 14
  22411779.063 117770778.177  91776327.146  22411779.063          43.0          36.3           0.0           0.0
  22176080.300 116532212.741  90811138.779  22176080.300          41.2          35.9           0.0           0.0
  22311165.071 117242065.618  91364312.406  22311165.071          44.0          34.3           0.0           0.0
  22188222.151 116596017.262  90860860.304  22188222.151          42.2          35.5           0.0           0.0
  22053193.188 115886458.676  90307916.020  22053193.188          39.7          34.8           0.0           0.0
  22499059.102 118229422.439  92133739.105  22499059.102          45.1          36.0           0.0           0.0
  22004174.133 115628870.650  90107182.983  22004174.133          38.8          36.2           0.0           0.0
  22139559.082 116340299.967  90661585.119  22139559.082          39.7          36.2           0.0           0.0
  22073407.110 115992680.429  90390692.430  22073407.110          40.9          32.5           0.0           0.0
  22349535.151 117443694.616  91521437.698  22349535.151          45.2          35.9           0.0           0.0
  22306166.947 117215801.819  91343845.584  22306166.947          40.5          38.1           0.0           0.0
  22413913.231 117781992.044  91785065.875  22413913.231          40.2          35.9           0.0           0.0
  22445096.108 117945854.387  91912760.378  22445096.108          37.7          34.6           0.0           0.0
  22121017.070 116242864.361  90585655.579  22121017.070          43.9          33.7           0.0           0.0
> 2024  1  1  0  5   0.0000000  0 14
  22411779.223 117770778.229  91776327.185  22411779.223          40.3          36.4           0.0           0.0
  22176080.272 116532212.795  90811138.803  22176080.272          43.5          37.5           0.0           0.0
  22311165.034 117242065.664  91364312.424  22311165.034          41.3          36.8           0.0           0.0
  22188222.200 116596017.294  90860860.337  22188222.200          42.7          33.5           0.0           0.0
  22053192.889 115886458.714  90307916.046  22053192.889          40.7          39.6           0.0           0.0
  22499059.100 118229422.477  92133739.132  22499059.100          43.0          36.8           0.0           0.0
  22004174.171 115628870.714  90107183.023  22004174.171          39.8          41.6           0.0           0.0
  22139559.103 116340300.043  90661585.172  22139559.103          44.8          33.4           0.0           0.0
  22073406.935 115992680.478  90390692.445  22073406.935          41.9          36.5           0.0           0.0
  22349535.286 117443694.661  91521437.755  22349535.286          42.7          38.8           0.0           0.0
  22306167.012 117215801.872  91343845.589  22306167.012          41.9          35.2           0.0           0.0
  22413913.044 117781992.072  91785065.921  22413913.044          43.9          36.4           0.0           0.0
  22445096.248 117945854.408  91912760.449  22445096.248          45.9          37.0           0.0           0.0
  22121017.044 116242864.390  90585655.616  22121017.044          43.1          34.8           0.0           0.0
> 2024  1  1  0  5  30.0000000  0 14
  22411779.003 117770778.245  91776327.213  22411779.003          41.9          36.4           0.0           0.0
  22176080.221 116532212.844  90811138.827  22176080.221          39.8          36.1           0.0           0.0
  22311165.203 117242065.700  91364312.486  22311165.203          41.8          33.3           0.0           0.0
  22188222.098 116596017.360  90860860.385  22188222.098          42.7          35.2           0.0           0.0
  22053193.115 115886458.758  90307916.094  22053193.115          46.6          37.4           0.0           0.0
  22499059.153 118229422.516  92133739.179  22499059.153          41.4          36.6           0.0           0.0
  22004174.082 115628870.740  90107183.082  22004174.082          42.4          36.0           0.0           0.0
  22139559.131 116340300.060  90661585.210  22139559.131          43.2          39.0           0.0           0.0
  22073407.109 115992680.541  90390692.491  22073407.109          41.1          34.9           0.0           0.0
  22349535.069 117443694.719  91521437.781  22349535.069          43.1          40.3           0.0           0.0
  22306167.136 117215801.923  91343845.641  22306167.136          46.0          37.2           0.0           0.0
  22413913.217 117781992.151  91785065.959  22413913.217          43.2          35.1           0.0           0.0
  22445096.182 117945854.463  91912760.477  22445096.182          45.0          37.9           0.0           0.0
  22121017.085 116242864.450  90585655.640  22121017.085          44.1          37.9           0.0           0.0
> 2024  1  1  0  6   0.0000000  0 14
  22411779.023 117770778.312  91776327.256  22411779.023          42.0          36.8           0.0           0.0
  22176080.170 116532212.893  90811138.913  22176080.170          43.8          38.6           0.0           0.0
  22311165.123 117242065.758  91364312.519  22311165.123          41.0          36.8           0.0           0.0
  22188222.003 116596017.422  90860860.443  22188222.003          41.4          37.5           0.0           0.0
  22053193.226 115886458.831  90307916.121  22053193.226          43.4          37.3           0.0           0.0
  22499059.182 118229422.568  92133739.243  22499059.182          42.2          36.5           0.0           0.0
  22004174.123 115628870.802  90107183.133  22004174.123          41.8          36.0           0.0           0.0
  22139558.992 116340300.106  90661585.238  22139558.992          44.7          37.9           0.0           0.0
  22073407.147 115992680.580  90390692.540  22073407.147          43.6          37.5           0.0           0.0
  22349535.184 117443694.770  91521437.840  22349535.184          45.4          35.5           0.0           0.0
  22306167.241 117215801.972  91343845.698  22306167.241          42.0          37.7           0.0           0.0
  22413913.206 117781992.204  91785065.999  22413913.206          46.2          37.0           0.0           0.0
  22445096.193 117945854.532  91912760.504  22445096.193          48.4          38.1           0.0           0.0
  22121016.932 116242864.507  90585655.677  22121016.932          43.9          38.3           0.0           0.0
> 2024  1  1  0  6  30.0000000  0 14
  22411779.250 117770778.380  91776327.294  22411779.250          41.9          35.1           0.0           0.0
  22176080.209 116532212.969  90811138.921  22176080.209          44.4          37.9           0.0           0.0
  22311165.296 117242065.805  91364312.550  22311165.296          44.5          38.6           0.0           0.0
  22188222.068 116596017.457  90860860.464  22188222.068          45.8          39.8           0.0           0.0
  22053193.031 115886458.873  90307916.161  22053193.031          45.6          35.8           0.0           0.0
  22499059.083 118229422.589  92133739.268  22499059.083          38.7          37.0           0.0           0.0
  22004174.168 115628870.854  90107183.149  22004174.168          44.7          35.3           0.0           0.0
  22139559.095 116340300.180  90661585.291  22139559.095          42.5          35.9           0.0           0.0
  22073407.088 115992680.615  90390692.586  22073407.088          42.5          36.3           0.0           0.0
  22349535.122 117443694.807  91521437.870  22349535.122          45.7          37.6           0.0           0.0
  22306166.901 117215801.996  91343845.720  22306166.901          45.3          40.8           0.0           0.0
  22413913.093 117781992.233  91785066.046  22413913.093          43.7          36.8           0.0           0.0
  22445096.240 117945854.571  91912760.552  22445096.240          45.1          37.3           0.0           0.0
  22121017.205 116242864.550  90585655.738  22121017.205          43.4          33.3           0.0           0.0
> 2024  1  1  0  7   0.0000000  0 14
  22411779.194 117770778.425  91776327.333  22411779.194          45.9          38.0           0.0           0.0
  22176080.123 116532212.997  90811138.976  22176080.123          41.9          37.3           0.0           0.0
  22311165.313 117242065.869  91364312.613  22311165.313          43.0          41.1           0.0           0.0
  22188222.051 116596017.526  90860860.496  22188222.051          43.6          37.2           0.0           0.0
  22053193.168 115886458.925  90307916.211  22053193.168          45.3          37.3           0.0           0.0
  22499059.161 118229422.656  92133739.284  22499059.161          47.7          37.3           0.0           0.0
  22004173.963 115628870.899  90107183.211  22004173.963          43.4          36.9           0.0           0.0
  22139559.102 116340300.218  90661585.321  22139559.102          46.7          39.0           0.0           0.0
  22073407.226 115992680.693  90390692.612  22073407.226          45.5          37.3           0.0           0.0
  22349535.213 117443694.859  91521437.911  22349535.213          46.5          37.9           0.0           0.0
  22306167.076 117215802.053  91343845.755  22306167.076          43.5          34.0           0.0           0.0
  22413913.159 117781992.304  91785066.077  22413913.159          45.6          36.8           0.0           0.0
  22445096.204 117945854.630  91912760.595  22445096.204          43.6          38.7           0.0           0.0
  22121016.995 116242864.602  90585655.748  22121016.995          44.6          36.6           0.0           0.0
> 2024  1  1  0  7  30.0000000  0 14
  22411779.293 117770778.489  91776327.385  22411779.293          45.5          39.3           0.0           0.0
  22176080.251 116532213.032  90811139.012  22176080.251          44.3          38.7           0.0           0.0
  22311165.232 117242065.908  91364312.633  22311165.232          45.5          39.5           0.0           0.0
  22188222.344 116596017.579  90860860.546  22188222.344          44.1          40.2           0.0           0.0
  22053193.318 115886458.983  90307916.237  22053193.318          44.7          37.1           0.0           0.0
  22499059.196 118229422.714  92133739.341  22499059.196          44.4          41.0           0.0           0.0
  22004174.156 115628870.964  90107183.247  22004174.156          42.0          35.9           0.0           0.0
  22139559.306 116340300.267  90661585.366  22139559.306          44.8          38.9           0.0           0.0
  22073407.292 115992680.718  90390692.661  22073407.292          48.7          38.4           0.0           0.0
  22349535.079 117443694.926  91521437.939  22349535.079          43.8          37.0           0.0           0.0
  22306167.235 117215802.105  91343845.797  22306167.235          43.2          36.4           0.0           0.0
  22413913.064 117781992.346  91785066.129  22413913.064          45.0          36.4           0.0           0.0
  22445096.230 117945854.682  91912760.637  22445096.230          48.2          38.6           0.0           0.0
  22121017.095 116242864.648  90585655.797  22121017.095          46.4          39.0           0.0           0.0
> 2024  1  1  0  8   0.0000000  0 14
  22411779.263 117770778.534  91776327.424  22411779.263          45.9          37.0           0.0           0.0
  22176080.102 116532213.096  90811139.047  22176080.102          46.6          38.1           0.0           0.0
  22311165.022 117242065.945  91364312.697  22311165.022          43.6          39.8           0.0           0.0
  22188222.200 116596017.615  90860860.605  22188222.200          47.0          36.7           0.0           0.0
  22053193.161 115886459.019  90307916.290  22053193.161          44.4          33.6           0.0           0.0
  22499059.036 118229422.775  92133739.376  22499059.036          45.4          41.7           0.0           0.0
  22004174.208 115628871.005  90107183.276  22004174.208          40.8          39.1           0.0           0.0
  22139559.329 116340300.322  90661585.417  22139559.329          47.1          37.2           0.0           0.0
  22073407.160 115992680.774  90390692.689  22073407.160          43.6          39.1           0.0           0.0
  22349535.186 117443694.965  91521437.994  22349535.186          42.9          39.0           0.0           0.0
  22306167.292 117215802.174  91343845.845  22306167.292          48.6          38.1           0.0           0.0
  22413913.216 117781992.389  91785066.155  22413913.216          45.1          33.9           0.0           0.0
  22445096.159 117945854.714  91912760.684  22445096.159          46.2          37.7           0.0           0.0
  22121017.214 116242864.702  90585655.839  22121017.214          47.9          41.3           0.0           0.0
> 2024  1  1  0  8  30.0000000  0 14
  22411779.114 117770778.582  91776327.471  22411779.114          48.2          36.5           0.0           0.0
  22176080.083 116532213.154  90811139.082  22176080.083          47.4          40.6           0.0           0.0
  22311165.041 117242065.995  91364312.714  22311165.041          47.4          36.6           0.0           0.0
  22188222.148 116596017.659  90860860.636  22188222.148          47.0          36.0           0.0           0.0
  22053193.216 115886459.079  90307916.326  22053193.216          44.3          37.3           0.0           0.0
  22499059.160 118229422.818  92133739.418  22499059.160          44.2          40.5           0.0           0.0
  22004174.101 115628871.057  90107183.314  22004174.101          44.3          42.7           0.0           0.0
  22139559.263 116340300.394  90661585.450  22139559.263          48.4          39.4           0.0           0.0
  22073407.297 115992680.827  90390692.720  22073407.297          45.1          36.4           0.0           0.0
  22349535.112 117443695.035  91521438.032  22349535.112          48.2          39.8           0.0           0.0
  22306167.227 117215802.222  91343845.895  22306167.227          44.8          38.6           0.0           0.0
  22413913.143 117781992.446  91785066.205  22413913.143          43.1          38.3           0.0           0.0
  22445096.293 117945854.756  91912760.721  22445096.293          47.2          38.9           0.0           0.0
  22121017.172 116242864.742  90585655.900  22121017.172          47.6          41.0           0.0           0.0
> 2024  1  1  0  9   0.0000000  0 14
  22411779.121 117770778.616  91776327.491  22411779.121          47.6          40.0           0.0           0.0
  22176080.204 116532213.210  90811139.134  22176080.204          47.6          42.1           0.0           0.0
  22311165.220 117242066.068  91364312.757  22311165.220          49.5          37.2           0.0           0.0
  22188222.155 116596017.697  90860860.673  22188222.155          46.9          39.7           0.0           0.0
  22053193.274 115886459.125  90307916.381  22053193.274          47.5          42.7           0.0           0.0
  22499059.152 118229422.870  92133739.464  22499059.152          45.9          41.5           0.0           0.0
  22004174.140 115628871.116  90107183.334  22004174.140          45.4          38.9           0.0           0.0
  22139559.162 116340300.443  90661585.479  22139559.162          46.8          37.5           0.0           0.0
  22073407.199 115992680.884  90390692.777  22073407.199          42.2          35.6           0.0           0.0
  22349535.186 117443695.063  91521438.088  22349535.186          45.4          39.1           0.0           0.0
  22306167.204 117215802.266  91343845.926  22306167.204          46.2          43.3           0.0           0.0
  22413913.134 117781992.472  91785066.245  22413913.134          45.4          40.2           0.0           0.0
  22445096.154 117945854.817  91912760.763  22445096.154          47.6          37.2           0.0           0.0
  22121017.218 116242864.804  90585655.916  22121017.218          48.4          43.5           0.0           0.0
> 2024  1  1  0  9  30.0000000  0 14
  22411779.122 117770778.663  91776327.547  22411779.122          47.3          36.7           0.0           0.0
  22176080.223 116532213.244  90811139.160  22176080.223          47.6          40.5           0.0           0.0
  22311165.042 117242066.122  91364312.793  22311165.042          48.5          43.1           0.0           0.0
  22188222.094 116596017.764  90860860.718  22188222.094          44.5          39.5           0.0           0.0
  22053193.285 115886459.182  90307916.382  22053193.285          48.3          39.8           0.0           0.0
  22499059.193 118229422.919  92133739.505  22499059.193          50.3          37.9           0.0           0.0
  22004174.242 115628871.156  90107183.413  22004174.242          44.4          38.9           0.0           0.0
  22139559.318 116340300.479  90661585.532  22139559.318          45.3          38.0           0.0           0.0
  22073407.118 115992680.923  90390692.813  22073407.118          48.0          37.2           0.0           0.0
  22349535.234 117443695.109  91521438.097  22349535.234          46.7          38.2           0.0           0.0
  22306167.091 117215802.322  91343845.985  22306167.091          45.3          35.7           0.0           0.0
  22413913.308 117781992.541  91785066.271  22413913.308          45.5          40.7           0.0           0.0
  22445096.313 117945854.862  91912760.776  22445096.313          48.9          40.9           0.0           0.0
  22121017.265 116242864.857  90585655.956  22121017.265          49.7          35.8           0.0           0.0
> 2024  1  1  0 10   0.0000000  0 14
  22411779.223 117770778.734  91776327.597  22411779.223          47.2          37.1           0.0           0.0
  22176080.244 116532213.291  90811139.206  22176080.244          45.1          38.8           0.0           0.0
  22311165.169 117242066.168  91364312.845  22311165.169          48.0          37.9           0.0           0.0
  22188222.244 116596017.822  90860860.753  22188222.244          48.6          39.4           0.0           0.0
  22053193.401 115886459.222  90307916.426  22053193.401          46.3          44.6           0.0           0.0
  22499059.209 118229422.965  92133739.527  22499059.209          49.0          42.1           0.0           0.0
  22004174.360 115628871.199  90107183.442  22004174.360          44.1          40.5           0.0           0.0
  22139559.290 116340300.533  90661585.567  22139559.290          45.6          44.2           0.0           0.0
  22073407.062 115992680.967  90390692.848  22073407.062          48.1          43.2           0.0           0.0
  22349535.179 117443695.167  91521438.118  22349535.179          46.1          36.5           0.0           0.0
  22306166.988 117215802.384  91343845.998  22306166.988          47.1          39.5           0.0           0.0
  22413913.332 117781992.591  91785066.309  22413913.332          48.5          40.4           0.0           0.0
  22445096.189 117945854.917  91912760.842  22445096.189          50.2          41.3           0.0           0.0
  22121017.264 116242864.909  90585656.007  22121017.264          45.2          40.0           0.0           0.0
> 2024  1  1  0 10  30.0000000  0 14
  22411779.335 117770778.780  91776327.632  22411779.335          44.7          40.7           0.0           0.0
  22176080.020 116532213.333  90811139.241  22176080.020          46.8          43.8           0.0           0.0
  22311165.279 117242066.195  91364312.872  22311165.279          48.0          39.5           0.0           0.0
  22188222.274 116596017.858  90860860.789  22188222.274          46.3          40.1           0.0           0.0
  22053193.445 115886459.270  90307916.482  22053193.445          46.6          38.7           0.0           0.0
  22499059.161 118229423.024  92133739.556  22499059.161          43.4          40.1           0.0           0.0
  22004174.459 115628871.258  90107183.476  22004174.459          49.2          36.3           0.0           0.0
  22139559.378 116340300.573  90661585.602  22139559.378          43.5          41.1           0.0           0.0
  22073407.263 115992681.039  90390692.912  22073407.263          46.7          37.0           0.0           0.0
  22349535.489 117443695.212  91521438.197  22349535.489          47.5          40.2           0.0           0.0
  22306167.133 117215802.425  91343846.056  22306167.133          46.4          45.4           0.0           0.0
  22413913.258 117781992.650  91785066.359  22413913.258          49.2          41.7           0.0           0.0
  22445096.095 117945854.966  91912760.886  22445096.095          44.4          41.4           0.0           0.0
  22121017.189 116242864.963  90585656.051  22121017.189          48.2          39.9           0.0           0.0
> 2024  1  1  0 11   0.0000000  0 14
  22411779.240 117770778.816  91776327.658  22411779.240          51.4          44.3           0.0           0.0
  22176080.227 116532213.391  90811139.285  22176080.227          48.1          41.8           0.0           0.0
  22311165.233 117242066.259  91364312.916  22311165.233          47.7          39.1           0.0           0.0
  22188222.140 116596017.910  90860860.821  22188222.140          48.6          41.1           0.0           0.0
  22053193.448 115886459.312  90307916.520  22053193.448          48.3          41.3           0.0           0.0
  22499059.277 118229423.060  92133739.609  22499059.277          48.6          44.0           0.0           0.0
  22004174.133 115628871.309  90107183.516  22004174.133          47.7          38.6           0.0           0.0
  22139558.993 116340300.638  90661585.649  22139558.993          49.2          42.3           0.0           0.0
  22073407.283 115992681.049  90390692.959  22073407.283          48.4          36.5           0.0           0.0
  22349535.158 117443695.271  91521438.209  22349535.158          52.0          42.0           0.0           0.0
  22306167.060 117215802.462  91343846.086  22306167.060          48.3          42.4           0.0           0.0
  22413913.265 117781992.711  91785066.381  22413913.265          49.8          40.8           0.0           0.0
  22445096.385 117945855.030  91912760.912  22445096.385          50.3          39.4           0.0           0.0
  22121017.277 116242865.020  90585656.069  22121017.277          48.4          38.9           0.0           0.0
> 2024  1  1  0 11  30.0000000  0 14
  22411779.259 117770778.884  91776327.695  22411779.259          50.6          37.4           0.0           0.0
  22176080.202 116532213.431  90811139.339  22176080.202          51.6          40.3           0.0           0.0
  22311165.290 117242066.320  91364312.962  22311165.290          50.2          44.8           0.0           0.0
  22188222.222 116596017.976  90860860.884  22188222.222          49.8          40.3           0.0           0.0
  22053193.424 115886459.358  90307916.554  22053193.424          48.0          43.2           0.0           0.0
  22499059.258 118229423.100  92133739.650  22499059.258          45.8          40.2           0.0           0.0
  22004174.364 115628871.359  90107183.567  22004174.364          48.6          35.8           0.0           0.0
  22139559.345 116340300.647  90661585.682  22139559.345          51.7          40.3           0.0           0.0
  22073407.374 115992681.142  90390692.977  22073407.374          48.4          41.8           0.0           0.0
  22349535.262 117443695.312  91521438.276  22349535.262          48.1          40.3           0.0           0.0
  22306167.202 117215802.512  91343846.126  22306167.202          50.2          37.2           0.0           0.0
  22413912.987 117781992.749  91785066.441  22413912.987          44.8          39.5           0.0           0.0
  22445096.231 117945855.070  91912760.947  22445096.231          46.4          37.8           0.0           0.0
  22121017.328 116242865.036  90585656.127  22121017.328          46.4          39.2           0.0           0.0
> 2024  1  1  0 12   0.0000000  0 14
  22411779.236 117770778.923  91776327.758  22411779.236          48.4          41.4           0.0           0.0
  22176080.186 116532213.509  90811139.369  22176080.186          50.4          42.2           0.0           0.0
  22311165.086 117242066.374  91364312.995  22311165.086          48.7          38.8           0.0           0.0
  22188222.340 116596018.016  90860860.911  22188222.340          51.0          37.9           0.0           0.0
  22053193.284 115886459.418  90307916.600  22053193.284          50.1          46.1           0.0           0.0
  22499059.172 118229423.162  92133739.705  22499059.172          45.0          40.1           0.0           0.0
  22004174.331 115628871.411  90107183.604  22004174.331          49.2          44.1           0.0           0.0
  22139559.151 116340300.722  90661585.730  22139559.151          50.2          39.8           0.0           0.0
  22073407.209 115992681.183  90390693.012  22073407.209          50.6          40.7           0.0           0.0
  22349535.314 117443695.380  91521438.305  22349535.314          51.5          37.4           0.0           0.0
  22306167.274 117215802.582  91343846.163  22306167.274          46.7          36.0           0.0           0.0
  22413913.055 117781992.772  91785066.474  22413913.055          55.0          43.1           0.0           0.0
  22445096.159 117945855.108  91912760.975  22445096.159          50.4          39.7           0.0           0.0
  22121017.082 116242865.083  90585656.154  22121017.082          51.7          43.2           0.0           0.0
> 2024  1  1  0 12  30.0000000  0 14
  22411779.156 117770778.955  91776327.794  22411779.156          46.5          40.6           0.0           0.0
  22176080.254 116532213.560  90811139.415  22176080.254          49.5          44.6           0.0           0.0
  22311165.397 117242066.395  91364313.038  22311165.397          50.6          40.0           0.0           0.0
  22188222.246 116596018.060  90860860.952  22188222.246          51.3          43.9           0.0           0.0
  22053193.409 115886459.447  90307916.630  22053193.409          49.3          41.6           0.0           0.0
  22499059.314 118229423.217  92133739.727  22499059.314          52.2          44.9           0.0           0.0
  22004174.301 115628871.454  90107183.614  22004174.301          50.8          41.4           0.0           0.0
  22139559.203 116340300.780  90661585.757  22139559.203          50.0          40.7           0.0           0.0
  22073407.401 115992681.230  90390693.052  22073407.401          49.6          43.5           0.0           0.0
  22349535.231 117443695.418  91521438.340  22349535.231          50.2          43.3           0.0           0.0
  22306167.460 117215802.622  91343846.221  22306167.460          51.1          39.1           0.0           0.0
  22413913.269 117781992.835  91785066.505  22413913.269          50.4          43.0           0.0           0.0
  22445096.094 117945855.162  91912761.032  22445096.094          49.1          40.1           0.0           0.0
  22121017.347 116242865.152  90585656.212  22121017.347          46.5          43.8           0.0           0.0
> 2024  1  1  0 13   0.0000000  0 14
  22411779.237 117770779.017  91776327.820  22411779.237          49.3          43.2           0.0           0.0
  22176080.201 116532213.587  90811139.461  22176080.201          50.8          39.8           0.0           0.0
  22311165.264 117242066.448  91364313.084  22311165.264          46.5          39.5           0.0           0.0
  22188222.275 116596018.113  90860860.991  22188222.275          49.4          44.4           0.0           0.0
  22053193.087 115886459.522  90307916.667  22053193.087          46.0          41.5           0.0           0.0
  22499059.159 118229423.247  92133739.773  22499059.159          50.2          43.1           0.0           0.0
  22004174.284 115628871.520  90107183.683  22004174.284          48.7          40.6           0.0           0.0
  22139559.338 116340300.831  90661585.800  22139559.338          49.7          40.8           0.0           0.0
  22073407.450 115992681.270  90390693.094  22073407.450          45.3          41.6           0.0           0.0
  22349535.227 117443695.469  91521438.403  22349535.227          48.1          40.3           0.0           0.0
  22306167.263 117215802.670  91343846.265  22306167.263          48.5          43.9           0.0           0.0
  22413913.254 117781992.885  91785066.567  22413913.254          45.7          40.2           0.0           0.0
  22445096.272 117945855.224  91912761.063  22445096.272          52.2          40.3           0.0           0.0
  22121017.190 116242865.201  90585656.255  22121017.190          48.7          41.2           0.0           0.0
> 2024  1  1  0 13  30.0000000  0 14
  22411779.289 117770779.066  91776327.859  22411779.289          50.0          41.3           0.0           0.0
  22176080.295 116532213.649  90811139.500  22176080.295          53.3          42.9           0.0           0.0
  22311165.232 117242066.516  91364313.126  22311165.232          49.1          40.5           0.0           0.0
  22188222.146 116596018.160  90860861.041  22188222.146          49.6          43.4           0.0           0.0
  22053193.269 115886459.589  90307916.718  22053193.269          48.4          41.4           0.0           0.0
  22499059.218 118229423.301  92133739.827  22499059.218          49.9          45.9           0.0           0.0
  22004174.399 115628871.551  90107183.729  22004174.399          49.7          41.0           0.0           0.0
  22139559.222 116340300.871  90661585.861  22139559.222          53.1          41.8           0.0           0.0
  22073407.354 115992681.310  90390693.135  22073407.354          50.3          41.3           0.0           0.0
  22349535.433 117443695.506  91521438.429  22349535.433          46.8          45.5           0.0           0.0
  22306167.306 117215802.719  91343846.288  22306167.306          45.7          41.8           0.0           0.0
  22413913.236 117781992.937  91785066.612  22413913.236          48.4          44.3           0.0           0.0
  22445096.340 117945855.256  91912761.123  22445096.340          50.3          43.3           0.0           0.0
  22121017.219 116242865.262  90585656.268  22121017.219          51.5          43.1           0.0           0.0
> 2024  1  1  0 14   0.0000000  0 14
  22411779.251 117770779.118  91776327.916  22411779.251          50.8          40.3           0.0           0.0
  22176080.467 116532213.700  90811139.539  22176080.467          47.8          40.3           0.0           0.0
  22311165.522 117242066.564  91364313.155  22311165.522          48.8          44.2           0.0           0.0
  22188222.334 116596018.197  90860861.066  22188222.334          50.1          43.6           0.0           0.0
  22053193.294 115886459.614  90307916.770  22053193.294          50.5          40.1           0.0           0.0
  22499059.228 118229423.372  92133739.871  22499059.228          52.0          43.0           0.0           0.0
  22004174.167 115628871.604  90107183.757  22004174.167          48.4          40.0           0.0           0.0
  22139559.271 116340300.927  90661585.896  22139559.271          48.6          41.5           0.0           0.0
  22073407.297 115992681.364  90390693.186  22073407.297          47.9          44.1           0.0           0.0
  22349535.372 117443695.572  91521438.467  22349535.372          49.7          41.1           0.0           0.0
  22306167.340 117215802.772  91343846.322  22306167.340          46.5          38.2           0.0           0.0
  22413913.191 117781993.000  91785066.649  22413913.191          48.1          42.3           0.0           0.0
  22445096.365 117945855.299  91912761.152  22445096.365          49.5          37.4           0.0           0.0
  22121017.294 116242865.289  90585656.312  22121017.294          51.3          44.1           0.0           0.0
> 2024  1  1  0 14  30.0000000  0 14
  22411779.389 117770779.167  91776327.952  22411779.389          53.4          41.5           0.0           0.0
  22176080.650 116532213.742  90811139.580  22176080.650          50.6          40.0           0.0           0.0
  22311165.345 117242066.617  91364313.203  22311165.345          54.4          40.6           0.0           0.0
  22188222.312 116596018.257  90860861.112  22188222.312          51.1          42.1           0.0           0.0
  22053193.299 115886459.675  90307916.791  22053193.299          52.3          42.1           0.0           0.0
  22499059.150 118229423.409  92133739.900  22499059.150          47.8          42.9           0.0           0.0
  22004174.254 115628871.660  90107183.782  22004174.254          49.8          43.1           0.0           0.0
  22139559.260 116340300.984  90661585.936  22139559.260          45.5          42.1           0.0           0.0
  22073407.334 115992681.411  90390693.217  22073407.334          48.4          40.8           0.0           0.0
  22349535.352 117443695.613  91521438.496  22349535.352          48.2          41.1           0.0           0.0
  22306167.399 117215802.811  91343846.363  22306167.399          53.5          43.9           0.0           0.0
  22413913.232 117781993.024  91785066.690  22413913.232          49.7          42.6           0.0           0.0
  22445096.192 117945855.367  91912761.188  22445096.192          50.9          42.3           0.0           0.0
  22121017.258 116242865.354  90585656.362  22121017.258          47.4          43.3           0.0           0.0
> 2024  1  1  0 15   0.0000000  0 14
  22411779.331 117770779.224  91776327.976  22411779.331          47.6          42.0           0.0           0.0
  22176080.351 116532213.801  90811139.594  22176080.351          49.6          40.8           0.0           0.0
  22311165.336 117242066.662  91364313.244  22311165.336          51.8          41.0           0.0           0.0
  22188222.169 116596018.314  90860861.140  22188222.169          53.5          41.0           0.0           0.0
  22053193.462 115886459.724  90307916.832  22053193.462          48.7          39.5           0.0           0.0
  22499059.121 118229423.472  92133739.939  22499059.121          49.3          37.7           0.0           0.0
  22004174.136 115628871.702  90107183.832  22004174.136          45.0          41.7           0.0           0.0
  22139559.339 116340301.025  90661585.958  22139559.339          47.5          43.4           0.0           0.0
  22073407.278 115992681.487  90390693.251  22073407.278          48.6          42.0           0.0           0.0
  22349535.246 117443695.678  91521438.559  22349535.246          46.9          41.1           0.0           0.0
  22306167.406 117215802.870  91343846.409  22306167.406          48.6          41.0           0.0           0.0
  22413913.335 117781993.072  91785066.730  22413913.335          50.8          42.7           0.0           0.0
  22445096.348 117945855.411  91912761.225  22445096.348          50.8          43.0           0.0           0.0
  22121017.335 116242865.389  90585656.394  22121017.335          49.6          40.9           0.0           0.0
> 2024  1  1  0 15  30.0000000  0 14
  22411779.361 117770779.278  91776328.026  22411779.361          49.7          43.5           0.0           0.0
  22176080.371 116532213.839  90811139.640  22176080.371          49.7          45.8           0.0           0.0
  22311165.451 117242066.702  91364313.281  22311165.451          47.6          41.2           0.0           0.0
  22188222.340 116596018.379  90860861.180  22188222.340          50.1          39.7           0.0           0.0
  22053193.244 115886459.758  90307916.877  22053193.244          50.1          43.1           0.0           0.0
  22499059.476 118229423.517  92133739.972  22499059.476          50.8          42.0           0.0           0.0
  22004174.227 115628871.740  90107183.880  22004174.227          50.1          42.3           0.0           0.0
  22139559.335 116340301.082  90661586.019  22139559.335          45.0          41.1           0.0           0.0
  22073407.404 115992681.526  90390693.306  22073407.404          51.0          43.8           0.0           0.0
  22349535.184 117443695.726  91521438.574  22349535.184          48.8          40.8           0.0           0.0
  22306167.430 117215802.901  91343846.444  22306167.430          49.6          41.9           0.0           0.0
  22413913.292 117781993.147  91785066.772  22413913.292          46.7          41.4           0.0           0.0
  22445096.476 117945855.475  91912761.275  22445096.476          45.4          36.9           0.0           0.0
  22121017.372 116242865.436  90585656.436  22121017.372          51.1          40.6           0.0           0.0
> 2024  1  1  0 16   0.0000000  0 14
  22411779.312 117770779.313  91776328.057  22411779.312          48.5          35.1           0.0           0.0
  22176080.246 116532213.901  90811139.678  22176080.246          50.4          45.3           0.0           0.0
  22311165.249 117242066.756  91364313.311  22311165.249          53.1          42.1           0.0           0.0
  22188222.187 116596018.417  90860861.233  22188222.187          50.6          41.1           0.0           0.0
  22053193.245 115886459.826  90307916.926  22053193.245          48.3          47.4           0.0           0.0
  22499059.349 118229423.582  92133740.016  22499059.349          49.0          44.0           0.0           0.0
  22004174.182 115628871.812  90107183.909  22004174.182          52.6          42.1           0.0           0.0
  22139559.311 116340301.141  90661586.043  22139559.311          49.2          43.2           0.0           0.0
  22073407.418 115992681.593  90390693.345  22073407.418          50.7          41.2           0.0           0.0
  22349535.225 117443695.777  91521438.630  22349535.225          50.6          40.7           0.0           0.0
  22306167.280 117215802.962  91343846.511  22306167.280          47.9          40.1           0.0           0.0
  22413913.293 117781993.210  91785066.814  22413913.293          51.0          44.4           0.0           0.0
  22445096.245 117945855.518  91912761.305  22445096.245          50.5          41.3           0.0           0.0
  22121017.284 116242865.497  90585656.492  22121017.284          50.3          39.2           0.0           0.0
> 2024  1  1  0 16  30.0000000  0 14
  22411779.409 117770779.369  91776328.102  22411779.409          49.6          38.7           0.0           0.0
  22176080.281 116532213.949  90811139.714  22176080.281          46.8          41.3           0.0           0.0
  22311165.458 117242066.808  91364313.352  22311165.458          45.6          41.4           0.0           0.0
  22188222.400 116596018.480  90860861.248  22188222.400          50.6          42.1           0.0           0.0
  22053193.349 115886459.871  90307916.963  22053193.349          49.2          40.3           0.0           0.0
  22499059.198 118229423.628  92133740.047  22499059.198          47.0          37.8           0.0           0.0
  22004174.331 115628871.856  90107183.963  22004174.331          47.2          41.1           0.0           0.0
  22139559.264 116340301.168  90661586.098  22139559.264          48.9          42.7           0.0           0.0
  22073407.198 115992681.635  90390693.368  22073407.198          52.1          41.9           0.0           0.0
  22349535.261 117443695.818  91521438.673  22349535.261          53.0          39.9           0.0           0.0
  22306167.357 117215803.011  91343846.518  22306167.357          51.1          37.8           0.0           0.0
  22413913.509 117781993.237  91785066.837  22413913.509          46.2          41.8           0.0           0.0
  22445096.319 117945855.564  91912761.357  22445096.319          45.9          43.1           0.0           0.0
  22121017.182 116242865.548  90585656.505  22121017.182          50.8          41.5           0.0           0.0
> 2024  1  1  0 17   0.0000000  0 14
  22411779.379 117770779.436  91776328.136  22411779.379          46.4          42.9           0.0           0.0
  22176080.198 116532213.988  90811139.773  22176080.198          48.2          37.8           0.0           0.0
  22311165.321 117242066.873  91364313.385  22311165.321          50.1          41.6           0.0           0.0
  22188222.199 116596018.520  90860861.301  22188222.199          48.9          44.7           0.0           0.0
  22053193.343 115886459.914  90307917.006  22053193.343          50.2          41.5           0.0           0.0
  22499059.371 118229423.672  92133740.076  22499059.371          46.9          40.3           0.0           0.0
  22004174.378 115628871.904  90107184.008  22004174.378          47.5          40.6           0.0           0.0
  22139559.450 116340301.222  90661586.124  22139559.450          50.1          43.0           0.0           0.0
  22073407.439 115992681.662  90390693.414  22073407.439          46.4          39.5           0.0           0.0
  22349535.302 117443695.851  91521438.708  22349535.302          47.7          39.3           0.0           0.0
  22306167.366 117215803.077  91343846.579  22306167.366          49.5          42.3           0.0           0.0
  22413913.550 117781993.296  91785066.888  22413913.550          49.3          40.9           0.0           0.0
  22445096.424 117945855.620  91912761.387  22445096.424          52.6          40.3           0.0           0.0
  22121017.313 116242865.597  90585656.556  22121017.313          49.8          43.5           0.0           0.0
> 2024  1  1  0 17  30.0000000  0 14
  22411779.236 117770779.447  91776328.189  22411779.236          48.4          43.0           0.0           0.0
  22176080.298 116532214.053  90811139.807  22176080.298          49.1          41.4           0.0           0.0
  22311165.519 117242066.902  91364313.443  22311165.519          51.1          40.8           0.0           0.0
  22188222.403 116596018.566  90860861.346  22188222.403          50.2          40.2           0.0           0.0
  22053193.434 115886459.979  90307917.025  22053193.434          47.3          39.5           0.0           0.0
  22499059.248 118229423.716  92133740.136  22499059.248          53.2          41.0           0.0           0.0
  22004174.574 115628871.957  90107184.009  22004174.574          52.3          42.0           0.0           0.0
  22139559.266 116340301.265  90661586.178  22139559.266          50.2          41.0           0.0           0.0
  22073407.385 115992681.721  90390693.456  22073407.385          50.7          45.9           0.0           0.0
  22349535.301 117443695.919  91521438.734  22349535.301          55.2          42.1           0.0           0.0
  22306167.289 117215803.131  91343846.596  22306167.289          48.8          40.5           0.0           0.0
  22413913.277 117781993.332  91785066.898  22413913.277          49.3          38.0           0.0           0.0
  22445096.198 117945855.670  91912761.432  22445096.198          52.9          45.0           0.0           0.0
  22121017.423 116242865.650  90585656.604  22121017.423          51.2          40.3           0.0           0.0
> 2024  1  1  0 18   0.0000000  0 14
  22411779.231 117770779.528  91776328.215  22411779.231          50.8          41.6           0.0           0.0
  22176080.271 116532214.095  90811139.855  22176080.271          48.2          42.5           0.0           0.0
  22311165.368 117242066.971  91364313.477  22311165.368          49.2          46.5           0.0           0.0
  22188222.435 116596018.614  90860861.376  22188222.435          48.5          41.8           0.0           0.0
